{
    "YBO1": [
        {
            "yonAdi": "Üniversite - Otogar",
            "duraklar": [
                {
                    "stopId": "10080",
                    "stopName": "ÜNİVERSİTE 1",
                    "lat": "37.0378673",
                    "lng": "36.2255159"
                },
                {
                    "stopId": "10300",
                    "stopName": "ÜNİVERSİTE İİBF",
                    "lat": "37.038635",
                    "lng": "36.224257"
                },
                {
                    "stopId": "10301",
                    "stopName": "ÜNİVERSİTE KÜTÜPHANE 2",
                    "lat": "37.040113",
                    "lng": "36.221749"
                },
                {
                    "stopId": "10302",
                    "stopName": "SUNAR CAMİ",
                    "lat": "37.044352",
                    "lng": "36.226012"
                },
                {
                    "stopId": "10033",
                    "stopName": "TOSYALI DURAĞI",
                    "lat": "37.0528586",
                    "lng": "36.2307024"
                },
                {
                    "stopId": "10021",
                    "stopName": "CAN MARKET DURAĞI",
                    "lat": "37.0577674",
                    "lng": "36.2346396"
                },
                {
                    "stopId": "10130",
                    "stopName": "YENI HAYAT",
                    "lat": "37.0624032",
                    "lng": "36.2382085"
                },
                {
                    "stopId": "10131",
                    "stopName": "DOMINOS DURAGI",
                    "lat": "37.0635363",
                    "lng": "36.2371783"
                },
                {
                    "stopId": "10132",
                    "stopName": "PARK 328 DURAGI",
                    "lat": "37.0653931",
                    "lng": "36.2356301"
                },
                {
                    "stopId": "10072",
                    "stopName": "VALİLİK 2 DURAĞI",
                    "lat": "37.0679995",
                    "lng": "36.2340916"
                },
                {
                    "stopId": "10073",
                    "stopName": "AYSANLAR 2 DURAĞI",
                    "lat": "37.0691495",
                    "lng": "36.2363171"
                },
                {
                    "stopId": "10075",
                    "stopName": "ESKİ İTFAİYE 2 DURAĞI",
                    "lat": "37.0718157",
                    "lng": "36.2412461"
                },
                {
                    "stopId": "10076",
                    "stopName": "YURTİÇİ KARGO DURAĞI",
                    "lat": "37.0728422",
                    "lng": "36.2430909"
                },
                {
                    "stopId": "10077",
                    "stopName": "BAŞAK PETROL",
                    "lat": "37.075107",
                    "lng": "36.247496"
                },
                {
                    "stopId": "10008",
                    "stopName": "ÇİFT PETROL DURAĞI",
                    "lat": "37.0767335",
                    "lng": "36.2519783"
                },
                {
                    "stopId": "10047",
                    "stopName": "VİTAMİN ÇİFTLİĞİ",
                    "lat": "37.0769708",
                    "lng": "36.2525613"
                },
                {
                    "stopId": "10048",
                    "stopName": "KADİRLİ YOLU DURAĞI 2",
                    "lat": "37.0776187",
                    "lng": "36.2542789"
                },
                {
                    "stopId": "10266",
                    "stopName": "YENİ DEVLET HASTANESİ",
                    "lat": "37.0845871",
                    "lng": "36.273609"
                },
                {
                    "stopId": "10137",
                    "stopName": "OTOGAR",
                    "lat": "37.100271",
                    "lng": "36.2437115"
                }
            ],
            "saatler": {
                "haftaici": [],
                "cumartesi": [],
                "pazar": []
            }
        },
        {
            "yonAdi": "Otogar - Üniversite",
            "duraklar": [
                {
                    "stopId": "10137",
                    "stopName": "OTOGAR",
                    "lat": "37.100271",
                    "lng": "36.2437115"
                },
                {
                    "stopId": "10183",
                    "stopName": "KABULLER DURAGI",
                    "lat": "37.0916006",
                    "lng": "36.2497238"
                },
                {
                    "stopId": "10185",
                    "stopName": "IMAM AZAM CAMI",
                    "lat": "37.0845802",
                    "lng": "36.2516522"
                },
                {
                    "stopId": "10006",
                    "stopName": "KADİRLİ YOLU DURAĞI",
                    "lat": "37.077440",
                    "lng": "36.253271"
                },
                {
                    "stopId": "10007",
                    "stopName": "YENİ BELEDİYE DURAĞI",
                    "lat": "37.0763085",
                    "lng": "36.249857"
                },
                {
                    "stopId": "10084",
                    "stopName": "ÇARŞI DURAĞI",
                    "lat": "37.0753797",
                    "lng": "36.2476689"
                },
                {
                    "stopId": "10060",
                    "stopName": "ORMAN İŞLETMESİ",
                    "lat": "37.0727147",
                    "lng": "36.2425333"
                },
                {
                    "stopId": "10061",
                    "stopName": "ESKİ İTFAİYE DURAĞI",
                    "lat": "37.072068",
                    "lng": "36.241322"
                },
                {
                    "stopId": "10062",
                    "stopName": "BİLPA DURAĞI",
                    "lat": "37.0703777",
                    "lng": "36.2382704"
                },
                {
                    "stopId": "10145",
                    "stopName": "PARK 328 2 DURAGI",
                    "lat": "37.065408",
                    "lng": "36.235327"
                },
                {
                    "stopId": "10146",
                    "stopName": "DOMINOS 2 DURAGI",
                    "lat": "37.0634983",
                    "lng": "36.2370814"
                },
                {
                    "stopId": "10147",
                    "stopName": "YENI HAYAT 2",
                    "lat": "37.062335",
                    "lng": "36.2380724"
                },
                {
                    "stopId": "10017",
                    "stopName": "SİTELER 2 DURAĞI",
                    "lat": "37.061832",
                    "lng": "36.23813"
                },
                {
                    "stopId": "10034",
                    "stopName": "CAN MARKET 2",
                    "lat": "37.057855",
                    "lng": "36.234463"
                },
                {
                    "stopId": "10189",
                    "stopName": "TOSYALI 2",
                    "lat": "37.0528633",
                    "lng": "36.2305625"
                },
                {
                    "stopId": "10303",
                    "name": "SUNAR CAMİ 2",
                    "lat": "37.044420",
                    "lng": "36.225856"
                },
                {
                    "stopId": "10304",
                    "stopName": "ÜNİVERSİTE KÜTÜPHANE",
                    "lat": "37.039993",
                    "lng": "36.221615"
                },
                {
                    "stopId": "10305",
                    "stopName": "ÜNİVERSİTE MÜHENDİSLİK DEKANLIK",
                    "lat": "37.038532",
                    "lng": "36.224174"
                },
                {
                    "stopId": "10080",
                    "stopName": "ÜNİVERSİTE 1",
                    "lat": "37.0378673",
                    "lng": "36.2255159"
                }
            ],
            "saatler": {
                "haftaici": [],
                "cumartesi": [],
                "pazar": []
            }
        }
    ],
    "YBO2": [
        {
            "yonAdi": "Otogar - Fakıuşağı(Uzun Versiyon)",
            "saatler": {
                "haftaici": [],
                "cumartesi": [],
                "pazar": []
            },
            "duraklar": [
                {
                    "stopId": "10137",
                    "stopName": "OTOGAR",
                    "lat": "37.100271",
                    "lng": "36.2437115"
                },
                {
                    "stopId": "10183",
                    "stopName": "KABULLER DURAGI",
                    "lat": "37.0916006",
                    "lng": "36.2497238"
                },
                {
                    "stopId": "10184",
                    "stopName": "DIS HASTANESI",
                    "lat": "37.0884464",
                    "lng": "36.2505536"
                },
                {
                    "stopId": "10259",
                    "stopName": "JANDARMA DURAĞI",
                    "lat": "37.0807012",
                    "lng": "36.2629686"
                },
                {
                    "stopId": "10266",
                    "stopName": "YENİ DEVLET HASTANESİ",
                    "lat": "37.0845871",
                    "lng": "36.273609"
                },
                {
                    "stopId": "10123",
                    "stopName": "GEBELI CINAR DURAGI",
                    "lat": "37.063681",
                    "lng": "36.2820462"
                },
                {
                    "stopId": "10124",
                    "stopName": "MEZARLIK YOLU DURAGI",
                    "lat": "37.0617631",
                    "lng": "36.2811351"
                },
                {
                    "stopId": "10107",
                    "stopName": "OGUZ APANOGLU DURAGI",
                    "lat": "37.0547991",
                    "lng": "36.275428"
                },
                {
                    "stopId": "10102",
                    "stopName": "SU DEPOSU DURAGI",
                    "lat": "37.056474",
                    "lng": "36.2678204"
                },
                {
                    "stopId": "10204",
                    "stopName": "NISA EVLERI DURAGI",
                    "lat": "37.0550141",
                    "lng": "36.2613341"
                },
                {
                    "stopId": "10203",
                    "stopName": "112 ACIL DURAGI",
                    "lat": "37.057082",
                    "lng": "36.259864"
                },
                {
                    "stopId": "10202",
                    "stopName": "19 MAYIS DURAGI",
                    "lat": "37.0586991",
                    "lng": "36.2593041"
                },
                {
                    "stopId": "10201",
                    "stopName": "GUVEN CAMI",
                    "lat": "37.0615985",
                    "lng": "36.2574438"
                },
                {
                    "stopId": "10015",
                    "stopName": "A101 DURAĞI",
                    "lat": "37.0665521",
                    "lng": "36.2422081"
                },
                {
                    "stopId": "10016",
                    "stopName": "SİTELER DURAĞI",
                    "lat": "37.0625983",
                    "lng": "36.2390287"
                },
                {
                    "stopId": "10130",
                    "stopName": "YENI HAYAT",
                    "lat": "37.0624032",
                    "lng": "36.2382085"
                },
                {
                    "stopId": "10131",
                    "stopName": "DOMINOS DURAGI",
                    "lat": "37.0635363",
                    "lng": "36.2371783"
                },
                {
                    "stopId": "10307",
                    "stopName": "ADLİYE",
                    "lat": "37.065068",
                    "lng": "36.233750"
                },
                {
                    "stopId": "10033",
                    "stopName": "TOSYALI DURAĞI",
                    "lat": "37.0528586",
                    "lng": "36.2307024"
                },
                {
                    "stopId": "10303",
                    "stopName": "SUNAR CAMİ 2",
                    "lat": "37.044420",
                    "lng": "36.225856"
                }
            ]
        },
        {
            "yonAdi": "Fakıuşağı - Otogar(Uzun Versiyon)",
            "saatler": {
                "haftaici": [],
                "cumartesi": [],
                "pazar": []
            },
            "duraklar": [
                {
                    "stopId": "10302",
                    "stopName": "SUNAR CAMİ",
                    "lat": "37.044352",
                    "lng": "36.226012"
                },
                {
                    "stopId": "10033",
                    "stopName": "TOSYALI DURAĞI",
                    "lat": "37.0528586",
                    "lng": "36.2307024"
                },
                {
                    "stopId": "10021",
                    "stopName": "CAN MARKET DURAĞI",
                    "lat": "37.0577674",
                    "lng": "36.2346396"
                },
                {
                    "stopId": "10306",
                    "stopName": "AVM YAN DURAK",
                    "lat": "37.064895",
                    "lng": "36.233795"
                },
                {
                    "stopId": "10146",
                    "stopName": "DOMINOS 2 DURAGI",
                    "lat": "37.0634983",
                    "lng": "36.2370814"
                },
                {
                    "stopId": "10147",
                    "stopName": "YENI HAYAT 2",
                    "lat": "37.062335",
                    "lng": "36.2380724"
                },
                {
                    "stopId": "10016",
                    "stopName": "SİTELER DURAĞI",
                    "lat": "37.0625983",
                    "lng": "36.2390287"
                },
                {
                    "stopId": "10040",
                    "stopName": "MİTHAT PAŞA OKULU",
                    "lat": "37.0633395",
                    "lng": "36.2397562"
                },
                {
                    "stopId": "10015",
                    "stopName": "A101 DURAĞI",
                    "lat": "37.0665521",
                    "lng": "36.2422081"
                },
                {
                    "stopId": "10231",
                    "stopName": "GUVEN CAMI 2 DURAGI",
                    "lat": "37.0616016",
                    "lng": "36.2574654"
                },
                {
                    "stopId": "10230",
                    "stopName": "19 MAYIS 2 DURAGI",
                    "lat": "37.058636",
                    "lng": "36.259359"
                },
                {
                    "stopId": "10229",
                    "stopName": "112 ACIL 2 DURAGI",
                    "lat": "37.0570288",
                    "lng": "36.2599086"
                },
                {
                    "stopId": "10228",
                    "stopName": "NISA EVLER 2",
                    "lat": "37.0548943",
                    "lng": "36.2612898"
                },
                {
                    "stopId": "10102",
                    "stopName": "SU DEPOSU DURAGI",
                    "lat": "37.056474",
                    "lng": "36.2678204"
                },
                {
                    "stopId": "10107",
                    "stopName": "OGUZ APANOGLU DURAGI",
                    "lat": "37.0547991",
                    "lng": "36.275428"
                },
                {
                    "stopId": "10124",
                    "stopName": "MEZARLIK YOLU DURAGI",
                    "lat": "37.0617631",
                    "lng": "36.2811351"
                },
                {
                    "stopId": "10054",
                    "stopName": "BÖLGE TRAFİK DURAĞI",
                    "lat": "37.0849099",
                    "lng": "36.2737542"
                },
                {
                    "stopId": "10055",
                    "stopName": "DSİ DURAĞI",
                    "lat": "37.0840576",
                    "lng": "36.2714995"
                },
                {
                    "stopId": "10056",
                    "stopName": "ÇOCUK HASTANESİ",
                    "lat": "37.0823473",
                    "lng": "36.2667448"
                },
                {
                    "stopId": "10003",
                    "stopName": "İBNİ SİNA",
                    "lat": "37.0808928",
                    "lng": "36.2629194"
                },
                {
                    "stopId": "10191",
                    "stopName": "DIS HASTANESI 2",
                    "lat": "37.0884421",
                    "lng": "36.250692"
                },
                {
                    "stopId": "10192",
                    "stopName": "KABULLER 2",
                    "lat": "37.0915849",
                    "lng": "36.2497771"
                },
                {
                    "stopId": "10193",
                    "stopName": "DUMLUPINAR GIRIS 2",
                    "lat": "37.0960446",
                    "lng": "36.2468155"
                },
                {
                    "stopId": "10137",
                    "stopName": "OTOGAR",
                    "lat": "37.100271",
                    "lng": "36.2437115"
                }
            ]
        }
    ],
    "A1": [
        {
            "yonAdi": "MEVLANA ➔ HASTANE",
            "saatler": {
                "haftaici": [
                    "06:45",
                    "07:00",
                    "07:20",
                    "07:40",
                    "08:00",
                    "08:30",
                    "09:00",
                    "09:30",
                    "10:00",
                    "10:30",
                    "11:00",
                    "11:30",
                    "12:00",
                    "12:30",
                    "13:00",
                    "13:30",
                    "14:00",
                    "14:30",
                    "15:00",
                    "15:30"
                ],
                "cumartesi": [],
                "pazar": []
            },
            "duraklar": [
                {
                    "stopId": "10194",
                    "stopName": "MEVLANA SON DURAK",
                    "lat": "37.092653",
                    "lng": "36.2682971"
                },
                {
                    "stopId": "10142",
                    "stopName": "ŞELALE PARK 2",
                    "lat": "37.0813271",
                    "lng": "36.240384"
                },
                {
                    "stopId": "10143",
                    "stopName": "TREN GARI DURAĞI",
                    "lat": "37.07905",
                    "lng": "36.2372144"
                },
                {
                    "stopId": "10133",
                    "stopName": "REMZİ ÖZER DURAĞI",
                    "lat": "37.0709659",
                    "lng": "36.2258899"
                },
                {
                    "stopId": "10063",
                    "stopName": "AYSANLAR DURAĞI",
                    "lat": "37.0687907",
                    "lng": "36.2353112"
                },
                {
                    "stopId": "10064",
                    "stopName": "AVM DURAĞI",
                    "lat": "37.0676938",
                    "lng": "36.2332084"
                },
                {
                    "stopId": "10065",
                    "stopName": "VALİLİK DURAĞI",
                    "lat": "37.066841",
                    "lng": "36.2315711"
                },
                {
                    "stopId": "10066",
                    "stopName": "TOYOTA BAYİİ DURAĞI",
                    "lat": "37.0627873",
                    "lng": "36.223998"
                },
                {
                    "stopId": "10026",
                    "stopName": "HASTANE KAVŞAĞI",
                    "lat": "37.0558336",
                    "lng": "36.1847725"
                },
                {
                    "stopId": "10027",
                    "stopName": "BÜYÜK HASTANE DURAĞI",
                    "lat": "37.0511338",
                    "lng": "36.1821579"
                }
            ]
        },
        {
            "yonAdi": "HASTANE ➔ MEVLANA",
            "saatler": {
                "haftaici": [
                    "07:30",
                    "07:50",
                    "08:10",
                    "08:30",
                    "09:00",
                    "09:30",
                    "10:00",
                    "10:30",
                    "11:00",
                    "11:30",
                    "12:00",
                    "12:30",
                    "13:00",
                    "13:30",
                    "14:05",
                    "14:40",
                    "15:15",
                    "15:55",
                    "16:30",
                    "16:55"
                ],
                "cumartesi": [],
                "pazar": []
            },
            "duraklar": [
                {
                    "stopId": "10027",
                    "stopName": "BÜYÜK HASTANE DURAĞI",
                    "lat": "37.0511338",
                    "lng": "36.1821579"
                },
                {
                    "stopId": "10028",
                    "stopName": "HASTANE KAVŞAĞI 2",
                    "lat": "37.0551287",
                    "lng": "36.1849335"
                },
                {
                    "stopId": "10068",
                    "stopName": "FISTIK ANITI DURAĞI",
                    "lat": "37.060255",
                    "lng": "36.2195267"
                },
                {
                    "stopId": "10066",
                    "stopName": "TOYOTA BAYİİ DURAĞI",
                    "lat": "37.062643",
                    "lng": "36.224147"
                },
                {
                    "stopId": "10261",
                    "stopName": "VALİLİK ANA DURAK",
                    "lat": "37.0668874",
                    "lng": "36.2319945"
                },
                {
                    "stopId": "10133",
                    "stopName": "REMZİ ÖZER DURAĞI",
                    "lat": "37.071287",
                    "lng": "36.226116"
                },
                {
                    "stopId": "10143",
                    "stopName": "TREN GARI DURAĞI",
                    "lat": "37.07905",
                    "lng": "36.2372144"
                },
                {
                    "stopId": "10136",
                    "stopName": "ŞELALE PARK",
                    "lat": "37.0812069",
                    "lng": "36.2402647"
                },
                {
                    "stopId": "10194",
                    "stopName": "MEVLANA SON DURAK",
                    "lat": "37.092653",
                    "lng": "36.2682971"
                }
            ]
        }
    ],
    "A10": [
        {
            "yonAdi": "YENİ MAH ➔ GEBELİ",
            "saatler": {
                "haftaici": [
                    "06:55",
                    "07:10",
                    "07:20",
                    "07:30",
                    "07:45",
                    "08:00",
                    "08:15",
                    "08:30",
                    "08:45",
                    "09:00",
                    "09:15",
                    "09:30",
                    "09:45",
                    "10:00",
                    "10:15",
                    "10:30",
                    "10:45",
                    "11:00",
                    "11:20",
                    "11:40",
                    "12:00",
                    "12:15",
                    "12:30",
                    "12:45",
                    "13:00",
                    "13:15",
                    "13:30",
                    "13:45",
                    "14:00",
                    "14:15",
                    "14:30",
                    "14:45",
                    "15:00",
                    "15:10",
                    "15:20",
                    "15:30",
                    "15:45",
                    "16:00",
                    "16:15",
                    "16:30",
                    "16:45",
                    "17:00",
                    "17:15",
                    "17:30",
                    "17:45",
                    "18:00",
                    "18:15",
                    "18:30",
                    "18:45",
                    "19:05",
                    "19:30",
                    "20:00"
                ],
                "cumartesi": [
                    "07:00",
                    "07:20",
                    "07:40",
                    "08:00",
                    "08:20",
                    "08:40",
                    "09:00",
                    "09:20",
                    "09:40",
                    "10:00",
                    "10:25",
                    "10:50",
                    "11:15",
                    "11:40",
                    "12:00",
                    "12:20",
                    "12:40",
                    "13:00",
                    "13:20",
                    "13:40",
                    "14:00",
                    "14:20",
                    "14:40",
                    "15:00",
                    "15:20",
                    "15:40",
                    "16:00",
                    "16:20",
                    "16:40",
                    "17:00",
                    "17:20",
                    "17:40",
                    "18:00",
                    "18:20",
                    "18:40",
                    "19:00",
                    "19:20",
                    "19:40"
                ],
                "pazar": [
                    "07:00",
                    "07:20",
                    "07:40",
                    "08:00",
                    "08:20",
                    "08:40",
                    "09:00",
                    "09:20",
                    "09:40",
                    "10:00",
                    "10:25",
                    "10:50",
                    "11:15",
                    "11:40",
                    "12:00",
                    "12:20",
                    "12:40",
                    "13:00",
                    "13:20",
                    "13:40",
                    "14:00",
                    "14:20",
                    "14:40",
                    "15:00",
                    "15:20",
                    "15:40",
                    "16:00",
                    "16:20",
                    "16:40",
                    "17:00",
                    "17:20",
                    "17:40",
                    "18:00",
                    "18:20",
                    "18:40",
                    "19:00",
                    "19:20",
                    "19:40"
                ]
            },
            "duraklar": [
                {
                    "stopId": "10140",
                    "stopName": "KUZEY CEVREYOLU 1",
                    "lat": "37.0875621",
                    "lng": "36.2339395"
                },
                {
                    "stopId": "10181",
                    "stopName": "NECIP FAZIL KISAKUREK 2",
                    "lat": "37.0863713",
                    "lng": "36.2380758"
                },
                {
                    "stopId": "10153",
                    "stopName": "SALI PAZARI 2",
                    "lat": "37.080508",
                    "lng": "36.241834"
                },
                {
                    "stopId": "10152",
                    "stopName": "KOSK DUGUN SALONU 2",
                    "lat": "37.0791349",
                    "lng": "36.2436508"
                },
                {
                    "stopId": "10151",
                    "stopName": "TURKUAZ 2 DURAGI",
                    "lat": "37.0780521",
                    "lng": "36.2451486"
                },
                {
                    "stopId": "10150",
                    "stopName": "MUCAHIT SOYDEMIR ORTAOKULU",
                    "lat": "37.0763612",
                    "lng": "36.2475516"
                },
                {
                    "stopId": "10077",
                    "stopName": "BAŞAK PETROL",
                    "lat": "37.0751592",
                    "lng": "36.2474414"
                },
                {
                    "stopId": "10092",
                    "stopName": "ZIRAAT BANKASI DURAGI",
                    "lat": "37.0741023",
                    "lng": "36.2471589"
                },
                {
                    "stopId": "10044",
                    "stopName": "ESKİ BELEDİYE DURAĞI",
                    "lat": "37.0728622",
                    "lng": "36.2489768"
                },
                {
                    "stopId": "10093",
                    "stopName": "ŞEHİTLİK DURAĞI",
                    "lat": "37.0727607",
                    "lng": "36.2510622"
                },
                {
                    "stopId": "10116",
                    "stopName": "ESKI MALIYE DURAGI",
                    "lat": "37.0723064",
                    "lng": "36.252683"
                },
                {
                    "stopId": "10117",
                    "stopName": "YARGICI CESMESI",
                    "lat": "37.0712546",
                    "lng": "36.2539269"
                },
                {
                    "stopId": "10121",
                    "stopName": "HUZUREVI",
                    "lat": "37.0668652",
                    "lng": "36.2745266"
                },
                {
                    "stopId": "10127",
                    "stopName": "GEBELI CINAR 2",
                    "lat": "37.0636073",
                    "lng": "36.2820008"
                },
                {
                    "stopId": "10124",
                    "stopName": "MEZARLIK YOLU DURAGI",
                    "lat": "37.0617631",
                    "lng": "36.2811351"
                }
            ]
        },
        {
            "yonAdi": "GEBELİ ➔ YENİ MAH",
            "saatler": {
                "haftaici": [
                    "06:35",
                    "06:40",
                    "06:50",
                    "06:55",
                    "07:10",
                    "07:25",
                    "07:35",
                    "07:45",
                    "08:00",
                    "08:15",
                    "08:30",
                    "08:45",
                    "09:00",
                    "09:15",
                    "09:30",
                    "09:45",
                    "10:00",
                    "10:15",
                    "10:30",
                    "10:45",
                    "11:00",
                    "11:15",
                    "11:35",
                    "11:55",
                    "12:15",
                    "12:30",
                    "12:45",
                    "13:00",
                    "13:15",
                    "13:30",
                    "13:45",
                    "14:00",
                    "14:15",
                    "14:30",
                    "14:45",
                    "15:00",
                    "15:15",
                    "15:25",
                    "15:35",
                    "15:45",
                    "16:00",
                    "16:15",
                    "16:30",
                    "16:45",
                    "17:00",
                    "17:15",
                    "17:30",
                    "17:45",
                    "18:00",
                    "18:15",
                    "18:30",
                    "18:45",
                    "19:00",
                    "19:20",
                    "19:45",
                    "20:15"
                ],
                "cumartesi": [
                    "06:45",
                    "06:55",
                    "07:15",
                    "07:35",
                    "07:55",
                    "08:15",
                    "08:35",
                    "08:55",
                    "09:15",
                    "09:35",
                    "09:55",
                    "10:15",
                    "10:40",
                    "11:05",
                    "11:30",
                    "11:55",
                    "12:15",
                    "12:35",
                    "12:55",
                    "13:15",
                    "13:35",
                    "13:55",
                    "14:15",
                    "14:35",
                    "14:55",
                    "15:15",
                    "15:35",
                    "15:55",
                    "16:15",
                    "16:35",
                    "16:55",
                    "17:15",
                    "17:35",
                    "17:55",
                    "18:15",
                    "18:35",
                    "18:55",
                    "19:15",
                    "19:40",
                    "20:05"
                ],
                "pazar": [
                    "06:45",
                    "06:55",
                    "07:15",
                    "07:35",
                    "07:55",
                    "08:15",
                    "08:35",
                    "08:55",
                    "09:15",
                    "09:35",
                    "09:55",
                    "10:15",
                    "10:40",
                    "11:05",
                    "11:30",
                    "11:55",
                    "12:15",
                    "12:35",
                    "12:55",
                    "13:15",
                    "13:35",
                    "13:55",
                    "14:15",
                    "14:35",
                    "14:55",
                    "15:15",
                    "15:35",
                    "15:55",
                    "16:15",
                    "16:35",
                    "16:55",
                    "17:15",
                    "17:35",
                    "17:55",
                    "18:15",
                    "18:35",
                    "18:55",
                    "19:15",
                    "19:40",
                    "20:05"
                ]
            },
            "duraklar": [
                {
                    "stopId": "10123",
                    "stopName": "GEBELI CINAR DURAGI",
                    "lat": "37.063681",
                    "lng": "36.2820462"
                },
                {
                    "stopId": "10122",
                    "stopName": "EKIZ MARKET DURAGI",
                    "lat": "37.0667238",
                    "lng": "36.2764286"
                },
                {
                    "stopId": "10121",
                    "stopName": "HUZUREVI",
                    "lat": "37.0668652",
                    "lng": "36.2745266"
                },
                {
                    "stopId": "10129",
                    "stopName": "CUMHURIYET CAMI 2",
                    "lat": "37.0677484",
                    "lng": "36.2673973"
                },
                {
                    "stopId": "10046",
                    "stopName": "HALK BANKASI DURAĞI",
                    "lat": "37.0740713",
                    "lng": "36.253796"
                },
                {
                    "stopId": "10009",
                    "stopName": "CUMHURİYET MEYDANI",
                    "lat": "37.0746309",
                    "lng": "36.2508804"
                },
                {
                    "stopId": "10150",
                    "stopName": "MUCAHIT SOYDEMIR ORTAOKULU",
                    "lat": "37.076441",
                    "lng": "36.247603"
                },
                {
                    "stopId": "10090",
                    "stopName": "KOSK DUGUN SALONU DURAGI",
                    "lat": "37.0792059",
                    "lng": "36.2437036"
                },
                {
                    "stopId": "10089",
                    "stopName": "SALI PAZARI",
                    "lat": "37.0806424",
                    "lng": "36.2417533"
                },
                {
                    "stopId": "10141",
                    "stopName": "DR IHSAN GOKNEL",
                    "lat": "37.0837888",
                    "lng": "36.236511"
                },
                {
                    "stopId": "10140",
                    "stopName": "KUZEY CEVREYOLU 1",
                    "lat": "37.087529",
                    "lng": "36.234072"
                }
            ]
        }
    ],
    "A11": [
        {
            "yonAdi": "ŞİRİNEVLER ➔ YENİ HAL",
            "saatler": {
                "haftaici": [
                    "07:00",
                    "07:30",
                    "08:00",
                    "08:30",
                    "09:00",
                    "10:00",
                    "11:00",
                    "12:00",
                    "13:00",
                    "14:00",
                    "14:30",
                    "15:00",
                    "16:00",
                    "17:00",
                    "18:00"
                ],
                "cumartesi": [
                    "07:00",
                    "07:30",
                    "08:00",
                    "09:00",
                    "10:00",
                    "11:00",
                    "12:00",
                    "13:00",
                    "14:00",
                    "15:00",
                    "16:00",
                    "17:00",
                    "18:00"
                ],
                "pazar": [
                    "07:00",
                    "09:00",
                    "11:00",
                    "13:00",
                    "15:00",
                    "16:00",
                    "17:00"
                ]
            },
            "duraklar": [
                {
                    "stopId": "10002",
                    "stopName": "KADIN DOĞUM HASTANESİ",
                    "lat": "37.0831123",
                    "lng": "36.2663004"
                },
                {
                    "stopId": "10003",
                    "stopName": "İBNİ SİNA",
                    "lat": "37.0808928",
                    "lng": "36.2629194"
                },
                {
                    "stopId": "10046",
                    "stopName": "HALK BANKASI DURAĞI",
                    "lat": "37.0740713",
                    "lng": "36.253796"
                },
                {
                    "stopId": "10009",
                    "stopName": "CUMHURİYET MEYDANI",
                    "lat": "37.0746309",
                    "lng": "36.2508804"
                },
                {
                    "stopId": "10010",
                    "stopName": "ZAFER CAMİ DURAĞI",
                    "lat": "37.0737714",
                    "lng": "36.2493749"
                },
                {
                    "stopId": "10058",
                    "stopName": "PARK DURAĞI",
                    "lat": "37.073966",
                    "lng": "36.2454707"
                },
                {
                    "stopId": "10059",
                    "stopName": "ESKİ DİŞ HASTANESİ",
                    "lat": "37.0741872",
                    "lng": "36.2453386"
                },
                {
                    "stopId": "10210",
                    "stopName": "OGRETMEN EVI",
                    "lat": "37.0770834",
                    "lng": "36.2377841"
                },
                {
                    "stopId": "10211",
                    "stopName": "YILDIRIM BEYAZIT DURAGI",
                    "lat": "37.0717574",
                    "lng": "36.2339951"
                },
                {
                    "stopId": "10212",
                    "stopName": "SIRINEVLER CAMI",
                    "lat": "37.0659664",
                    "lng": "36.2219721"
                },
                {
                    "stopId": "10213",
                    "stopName": "ASRI MEZARLIK DURAGI",
                    "lat": "37.065308",
                    "lng": "36.211436"
                },
                {
                    "stopId": "10214",
                    "stopName": "BAHCESEHIR KOLEJI DURAGI",
                    "lat": "37.063966",
                    "lng": "36.206734"
                },
                {
                    "stopId": "10215",
                    "stopName": "SEBZE HALI DURAGI",
                    "lat": "37.062427",
                    "lng": "36.200941"
                },
                {
                    "stopId": "10216",
                    "stopName": "KARABAHADIR DURAGI",
                    "lat": "37.0610278",
                    "lng": "36.1961422"
                }
            ]
        },
        {
            "yonAdi": "YENİ HAL ➔ ŞİRİNEVLER",
            "saatler": {
                "haftaici": [
                    "11:00",
                    "13:00",
                    "15:00",
                    "17:00"
                ],
                "cumartesi": [],
                "pazar": []
            },
            "duraklar": [
                {
                    "stopId": "10216",
                    "stopName": "KARABAHADIR DURAGI",
                    "lat": "37.0610278",
                    "lng": "36.1961422"
                },
                {
                    "stopId": "10217",
                    "stopName": "SEBZE HALI 2",
                    "lat": "37.0622769",
                    "lng": "36.2008564"
                },
                {
                    "stopId": "10218",
                    "stopName": "ASRI MEZARLIK 2",
                    "lat": "37.065107",
                    "lng": "36.2117453"
                },
                {
                    "stopId": "10219",
                    "stopName": "SIRINEVLER CAMI 2",
                    "lat": "37.0658782",
                    "lng": "36.221964"
                },
                {
                    "stopId": "10220",
                    "stopName": "YILDIRIM BEYAZIT 2",
                    "lat": "37.0715794",
                    "lng": "36.2339662"
                },
                {
                    "stopId": "10221",
                    "stopName": "OGRETMEN EVI 2",
                    "lat": "37.0769592",
                    "lng": "36.237713"
                },
                {
                    "stopId": "10058",
                    "stopName": "PARK DURAĞI",
                    "lat": "37.073966",
                    "lng": "36.2454707"
                },
                {
                    "stopId": "10092",
                    "stopName": "ZIRAAT BANKASI DURAGI",
                    "lat": "37.0741023",
                    "lng": "36.2471589"
                },
                {
                    "stopId": "10188",
                    "stopName": "ESKI BELEDIYE 2",
                    "lat": "37.0728439",
                    "lng": "36.2489542"
                },
                {
                    "stopId": "10045",
                    "stopName": "İŞ BANKASI DURAĞI",
                    "lat": "37.0735291",
                    "lng": "36.251722"
                },
                {
                    "stopId": "10222",
                    "stopName": "CIVIL 2",
                    "lat": "37.0740685",
                    "lng": "36.2549447"
                },
                {
                    "stopId": "10223",
                    "stopName": "ISTIKLAL ILKOGRETIM OKULU",
                    "lat": "37.075493",
                    "lng": "36.2603676"
                },
                {
                    "stopId": "10259",
                    "stopName": "JANDARMA DURAĞI",
                    "lat": "37.0807012",
                    "lng": "36.2629686"
                },
                {
                    "stopId": "10002",
                    "stopName": "KADIN DOĞUM HASTANESİ",
                    "lat": "37.0831123",
                    "lng": "36.2663004"
                }
            ]
        }
    ],
    "A12": [
        {
            "yonAdi": "BAŞ MH ➔ TREN GARI",
            "saatler": {
                "haftaici": [
                    "06:50",
                    "07:20",
                    "07:50",
                    "08:20",
                    "08:50",
                    "09:20",
                    "09:50",
                    "10:50",
                    "11:50",
                    "12:50",
                    "13:50",
                    "14:50",
                    "15:20",
                    "15:50",
                    "16:20",
                    "16:50",
                    "17:20",
                    "17:50",
                    "18:20"
                ],
                "cumartesi": [
                    "06:50",
                    "07:20",
                    "07:50",
                    "08:20",
                    "08:50",
                    "09:50",
                    "10:50",
                    "11:50",
                    "12:50",
                    "13:50",
                    "14:50",
                    "15:50",
                    "16:50",
                    "17:50"
                ],
                "pazar": [
                    "07:50",
                    "08:50",
                    "09:50",
                    "10:50",
                    "11:50",
                    "12:50",
                    "13:50",
                    "14:50",
                    "15:50",
                    "16:50",
                    "17:50"
                ]
            },
            "duraklar": [
                {
                    "stopId": "10263",
                    "stopName": "KATRAN OCAĞI",
                    "lat": "37.0502475",
                    "lng": "36.2635427"
                },
                {
                    "stopId": "10264",
                    "stopName": "YAVUZ SULTAN SELİM İLKOKULU",
                    "lat": "37.0586642",
                    "lng": "36.2512876"
                },
                {
                    "stopId": "10094",
                    "stopName": "YENI CARSI DURAGI",
                    "lat": "37.0714765",
                    "lng": "36.2518312"
                },
                {
                    "stopId": "10149",
                    "stopName": "CUMHURIYET MEYDANI 1",
                    "lat": "37.0745979",
                    "lng": "36.2503586"
                },
                {
                    "stopId": "10077",
                    "stopName": "BAŞAK PETROL",
                    "lat": "37.0751592",
                    "lng": "36.2474414"
                },
                {
                    "stopId": "10143",
                    "stopName": "TREN GARI DURAGI",
                    "lat": "37.07905",
                    "lng": "36.2372144"
                }
            ]
        },
        {
            "yonAdi": "TREN GARI ➔ BAŞ MH",
            "saatler": {
                "haftaici": [],
                "cumartesi": [],
                "pazar": []
            },
            "duraklar": [
                {
                    "stopId": "10143",
                    "stopName": "TREN GARI DURAGI",
                    "lat": "37.07905",
                    "lng": "36.2372144"
                },
                {
                    "stopId": "10092",
                    "stopName": "ZIRAAT BANKASI DURAGI",
                    "lat": "37.0741023",
                    "lng": "36.2471589"
                },
                {
                    "stopId": "10188",
                    "stopName": "ESKI BELEDIYE 2",
                    "lat": "37.0728439",
                    "lng": "36.2489542"
                },
                {
                    "stopId": "10094",
                    "stopName": "YENI CARSI DURAGI",
                    "lat": "37.0714765",
                    "lng": "36.2518312"
                },
                {
                    "stopId": "10263",
                    "stopName": "KATRAN OCAĞI",
                    "lat": "37.0502475",
                    "lng": "36.2635427"
                }
            ]
        }
    ],
    "A13": [
        {
            "yonAdi": "KURTULUŞ ➔ KARAÇAY",
            "saatler": {
                "haftaici": [
                    "06:45",
                    "07:15",
                    "07:45",
                    "08:15",
                    "08:45",
                    "09:15",
                    "09:45",
                    "10:45",
                    "11:45",
                    "12:45",
                    "13:45",
                    "14:45",
                    "15:15",
                    "15:45",
                    "16:15",
                    "16:45",
                    "17:15",
                    "17:45",
                    "18:15"
                ],
                "cumartesi": [
                    "06:45",
                    "07:15",
                    "07:45",
                    "08:15",
                    "08:45",
                    "09:45",
                    "10:45",
                    "11:45",
                    "12:45",
                    "13:45",
                    "14:45",
                    "15:45",
                    "16:45",
                    "17:45"
                ],
                "pazar": [
                    "07:45",
                    "08:45",
                    "09:45",
                    "10:45",
                    "11:45",
                    "12:45",
                    "13:45",
                    "14:45",
                    "15:45",
                    "16:45",
                    "17:45"
                ]
            },
            "duraklar": [
                {
                    "stopId": "10002",
                    "stopName": "KADIN DOĞUM HASTANESİ",
                    "lat": "37.0831123",
                    "lng": "36.2663004"
                },
                {
                    "stopId": "10056",
                    "stopName": "ÇOCUK HASTANESİ",
                    "lat": "37.0823473",
                    "lng": "36.2667448"
                },
                {
                    "stopId": "10003",
                    "stopName": "İBNİ SİNA",
                    "lat": "37.0808928",
                    "lng": "36.2629194"
                },
                {
                    "stopId": "10004",
                    "stopName": "NAHİR YOLU DURAĞI",
                    "lat": "37.0792916",
                    "lng": "36.2584603"
                },
                {
                    "stopId": "10005",
                    "stopName": "OKUL YOLU DURAĞI",
                    "lat": "37.0781914",
                    "lng": "36.2554414"
                },
                {
                    "stopId": "10006",
                    "stopName": "KADİRLİ YOLU DURAĞI",
                    "lat": "37.077440",
                    "lng": "36.253271"
                },
                {
                    "stopId": "10007",
                    "stopName": "YENİ BELEDİYE DURAĞI",
                    "lat": "37.0763085",
                    "lng": "36.249857"
                },
                {
                    "stopId": "10008",
                    "stopName": "ÇİFT PETROL DURAĞI",
                    "lat": "37.0767335",
                    "lng": "36.2519783"
                },
                {
                    "stopId": "10046",
                    "stopName": "HALK BANKASI DURAĞI",
                    "lat": "37.0740713",
                    "lng": "36.253796"
                },
                {
                    "stopId": "10222",
                    "stopName": "CIVIL 2",
                    "lat": "37.0740685",
                    "lng": "36.2549447"
                },
                {
                    "stopId": "10121",
                    "stopName": "HUZUREVI",
                    "lat": "37.0668652",
                    "lng": "36.2745266"
                },
                {
                    "stopId": "10265",
                    "stopName": "KARAÇAY MUHTARLIK",
                    "lat": "37.0596873",
                    "lng": "36.2754785"
                }
            ]
        },
        {
            "yonAdi": "KARAÇAY ➔ KURTULUŞ",
            "saatler": {
                "haftaici": [],
                "cumartesi": [],
                "pazar": []
            },
            "duraklar": [
                {
                    "stopId": "10265",
                    "stopName": "KARAÇAY MUHTARLIK",
                    "lat": "37.0596873",
                    "lng": "36.2754785"
                },
                {
                    "stopId": "10119",
                    "stopName": "CUMHURIYET CAMI DURAGI",
                    "lat": "37.06763",
                    "lng": "36.2670324"
                },
                {
                    "stopId": "10046",
                    "stopName": "HALK BANKASI DURAĞI",
                    "lat": "37.0740713",
                    "lng": "36.253796"
                },
                {
                    "stopId": "10009",
                    "stopName": "CUMHURİYET MEYDANI",
                    "lat": "37.0746309",
                    "lng": "36.2508804"
                },
                {
                    "stopId": "10047",
                    "stopName": "VİTAMİN ÇİFTLİĞİ",
                    "lat": "37.0769708",
                    "lng": "36.2525613"
                },
                {
                    "stopId": "10048",
                    "stopName": "KADİRLİ YOLU DURAĞI 2",
                    "lat": "37.0776187",
                    "lng": "36.2542789"
                },
                {
                    "stopId": "10049",
                    "stopName": "SHELL PETROL DURAĞI",
                    "lat": "37.0784618",
                    "lng": "36.2567187"
                },
                {
                    "stopId": "10259",
                    "stopName": "JANDARMA DURAĞI",
                    "lat": "37.0807012",
                    "lng": "36.2629686"
                },
                {
                    "stopId": "10050",
                    "stopName": "KADIN DOĞUM HASTANESİ 2",
                    "lat": "37.0830123",
                    "lng": "36.2664199"
                }
            ]
        }
    ],
    "A15": [
        {
            "yonAdi": "OTOGAR -  YENİ HASTANE",
            "saatler": {
                "haftaici": [
                    "06:20",
                    "06:40",
                    "07:00",
                    "07:15",
                    "07:25",
                    "07:40",
                    "08:00",
                    "08:20",
                    "08:40",
                    "09:00",
                    "09:20",
                    "09:40",
                    "10:00",
                    "10:30",
                    "11:00",
                    "11:20",
                    "11:40",
                    "12:00",
                    "12:20",
                    "12:40",
                    "13:00",
                    "13:20",
                    "13:40",
                    "14:00",
                    "14:20",
                    "14:40",
                    "15:00",
                    "15:15",
                    "15:30",
                    "15:45",
                    "16:00",
                    "16:20",
                    "16:40",
                    "17:00",
                    "17:20",
                    "17:40"
                ],
                "cumartesi": [],
                "pazar": []
            },
            "duraklar": [
                {
                    "stopId": "10137",
                    "stopName": "OTOGAR",
                    "lat": "37.100271",
                    "lng": "36.2437115"
                },
                {
                    "stopId": "10183",
                    "stopName": "KABULLER DURAGI",
                    "lat": "37.0916006",
                    "lng": "36.2497238"
                },
                {
                    "stopId": "10184",
                    "stopName": "DIS HASTANESI",
                    "lat": "37.0884464",
                    "lng": "36.2505536"
                },
                {
                    "stopId": "10259",
                    "stopName": "JANDARMA DURAĞI",
                    "lat": "37.0807012",
                    "lng": "36.2629686"
                },
                {
                    "stopId": "10266",
                    "stopName": "YENİ DEVLET HASTANESİ",
                    "lat": "37.0845871",
                    "lng": "36.273609"
                },
                {
                    "stopId": "10123",
                    "stopName": "GEBELI CINAR DURAGI",
                    "lat": "37.063681",
                    "lng": "36.282206"
                },
                {
                    "stopId": "10124",
                    "stopName": "MEZARLIK YOLU DURAGI",
                    "lat": "37.0617631",
                    "lng": "36.2811351"
                },
                {
                    "stopId": "10107",
                    "stopName": "OGUZ APANOGLU DURAGI",
                    "lat": "37.0547991",
                    "lng": "36.275428"
                },
                {
                    "stopId": "10102",
                    "stopName": "SU DEPOSU DURAGI",
                    "lat": "37.056474",
                    "lng": "36.2678204"
                },
                {
                    "stopId": "10204",
                    "stopName": "NISA EVLERI DURAGI",
                    "lat": "37.0550141",
                    "lng": "36.2613341"
                },
                {
                    "stopId": "10203",
                    "stopName": "112 ACIL DURAGI",
                    "lat": "37.0570972",
                    "lng": "36.2599689"
                },
                {
                    "stopId": "10202",
                    "stopName": "19 MAYIS DURAGI",
                    "lat": "37.058683",
                    "lng": "36.259426"
                },
                {
                    "stopId": "10201",
                    "stopName": "GUVEN CAMI",
                    "lat": "37.0615985",
                    "lng": "36.2574438"
                },
                {
                    "stopId": "10015",
                    "stopName": "A101 DURAĞI",
                    "lat": "37.0665521",
                    "lng": "36.2422081"
                },
                {
                    "stopId": "10016",
                    "stopName": "SİTELER DURAĞI",
                    "lat": "37.0625983",
                    "lng": "36.2390287"
                },
                {
                    "stopId": "10130",
                    "stopName": "YENI HAYAT",
                    "lat": "37.0624032",
                    "lng": "36.2382085"
                },
                {
                    "stopId": "10131",
                    "stopName": "DOMINOS DURAGI",
                    "lat": "37.0635363",
                    "lng": "36.2371783"
                },
                {
                    "stopId": "10307",
                    "stopName": "ADLİYE",
                    "lat": "37.065047",
                    "lng": "36.233701"
                },
                {
                    "stopId": "10308",
                    "stopName": "ADNAN OĞUZ 2 DURAĞI ",
                    "lat": "37.061267",
                    "lng": "36.229654"
                },
                {
                    "stopId": "10189",
                    "stopName": "TOSYALI 2",
                    "lat": "37.0528633",
                    "lng": "36.2305625"
                },
                {
                    "stopId": "10303",
                    "stopName": "SUNAR CAMİ 2",
                    "lat": "37.044420",
                    "lng": "36.225856"
                }
            ]
        },
        {
            "yonAdi": "YENİ HASTANE  - OTOGAR",
            "saatler": {
                "haftaici": [
                    "06:40",
                    "07:00",
                    "07:15",
                    "07:45",
                    "08:00",
                    "08:15",
                    "08:30",
                    "08:50",
                    "09:10",
                    "09:30",
                    "09:50",
                    "10:10",
                    "10:30",
                    "10:50",
                    "11:10",
                    "11:30",
                    "12:00",
                    "12:20",
                    "12:40",
                    "13:00",
                    "13:20",
                    "13:40",
                    "14:00",
                    "14:20",
                    "14:40",
                    "15:00",
                    "15:20",
                    "15:40",
                    "16:00",
                    "16:15",
                    "16:30",
                    "16:45",
                    "17:00",
                    "17:20",
                    "17:30",
                    "17:40",
                    "18:00",
                    "18:20",
                    "18:40",
                    "19:00"
                ],
                "cumartesi": [],
                "pazar": []
            },
            "duraklar": [
                {
                    "stopId": "10302",
                    "stopName": "SUNAR CAMİ",
                    "lat": "37.044352",
                    "lng": "36.226012"
                },
                {
                    "stopId": "10189",
                    "stopName": "TOSYALI 2",
                    "lat": "37.0528633",
                    "lng": "36.2305625"
                },
                {
                    "stopId": "10034",
                    "stopName": "CAN MARKET 2",
                    "lat": "37.0577236",
                    "lng": "36.2345713"
                },
                {
                    "stopId": "10309",
                    "stopName": "ADNAN OĞUZ DURAĞI ",
                    "lat": "37.061203",
                    "lng": "36.229651"
                },
                {
                    "stopId": "10306",
                    "stopName": "AVM YAN DURAK",
                    "lat": "37.064895",
                    "lng": "36.233795"
                },
                {
                    "stopId": "10146",
                    "stopName": "DOMINOS 2 DURAGI",
                    "lat": "37.0634983",
                    "lng": "36.2370814"
                },
                {
                    "stopId": "10147",
                    "stopName": "YENI HAYAT 2",
                    "lat": "37.062335",
                    "lng": "36.2380724"
                },
                {
                    "stopId": "10016",
                    "stopName": "SİTELER DURAĞI",
                    "lat": "37.0625983",
                    "lng": "36.2390287"
                },
                {
                    "stopId": "10040",
                    "stopName": "MİTHAT PAŞA OKULU",
                    "lat": "37.0633395",
                    "lng": "36.2397562"
                },
                {
                    "stopId": "10015",
                    "stopName": "A101 DURAĞI",
                    "lat": "37.0665521",
                    "lng": "36.2422081"
                },
                {
                    "stopId": "10231",
                    "stopName": "GUVEN CAMI 2 DURAGI",
                    "lat": "37.0616016",
                    "lng": "36.2574654"
                },
                {
                    "stopId": "10230",
                    "stopName": "19 MAYIS 2 DURAGI",
                    "lat": "37.058658",
                    "lng": "36.259367"
                },
                {
                    "stopId": "10229",
                    "stopName": "112 ACIL 2 DURAGI",
                    "lat": "37.0570288",
                    "lng": "36.2599086"
                },
                {
                    "stopId": "10228",
                    "stopName": "NISA EVLER 2",
                    "lat": "37.0548943",
                    "lng": "36.2612898"
                },
                {
                    "stopId": "10102",
                    "stopName": "SU DEPOSU DURAGI",
                    "lat": "37.056474",
                    "lng": "36.2678204"
                },
                {
                    "stopId": "10107",
                    "stopName": "OGUZ APANOGLU DURAGI",
                    "lat": "37.0547991",
                    "lng": "36.275428"
                },
                {
                    "stopId": "10124",
                    "stopName": "MEZARLIK YOLU DURAGI",
                    "lat": "37.0617631",
                    "lng": "36.2811351"
                },
                {
                    "stopId": "10054",
                    "stopName": "BÖLGE TRAFİK DURAĞI",
                    "lat": "37.0849099",
                    "lng": "36.2737542"
                },
                {
                    "stopId": "10055",
                    "stopName": "DSİ DURAĞI",
                    "lat": "37.0840576",
                    "lng": "36.2714995"
                },
                {
                    "stopId": "10056",
                    "stopName": "ÇOCUK HASTANESİ",
                    "lat": "37.0823473",
                    "lng": "36.2667448"
                },
                {
                    "stopId": "10003",
                    "stopName": "İBNİ SİNA",
                    "lat": "37.0808928",
                    "lng": "36.2629194"
                },
                {
                    "stopId": "10191",
                    "stopName": "DIS HASTANESI 2",
                    "lat": "37.0884421",
                    "lng": "36.250692"
                },
                {
                    "stopId": "10192",
                    "stopName": "KABULLER 2",
                    "lat": "37.0915849",
                    "lng": "36.2497771"
                },
                {
                    "stopId": "10193",
                    "stopName": "DUMLUPINAR GIRIS 2",
                    "lat": "37.0960446",
                    "lng": "36.2468155"
                },
                {
                    "stopId": "10137",
                    "stopName": "OTOGAR",
                    "lat": "37.100271",
                    "lng": "36.2437115"
                }
            ]
        }
    ],
    "A16": [
        {
            "yonAdi": "FAKIUŞAĞI - OTOGAR",
            "saatler": {
                "haftaici": [
                    "06:30",
                    "06:40",
                    "06:50",
                    "07:00",
                    "07:10",
                    "07:19",
                    "07:28",
                    "07:37",
                    "07:45",
                    "07:53",
                    "08:02",
                    "08:10",
                    "08:20",
                    "08:30",
                    "08:40",
                    "08:50",
                    "09:01",
                    "09:13",
                    "09:25",
                    "09:37",
                    "09:49",
                    "10:01",
                    "10:13",
                    "10:25",
                    "10:37",
                    "10:49",
                    "11:01",
                    "11:15",
                    "11:29",
                    "11:43",
                    "11:58",
                    "12:12",
                    "12:25",
                    "12:37",
                    "12:49",
                    "13:01",
                    "13:13",
                    "13:25",
                    "13:37",
                    "13:49",
                    "14:01",
                    "14:13",
                    "14:25",
                    "14:37",
                    "14:49",
                    "15:01",
                    "15:13",
                    "15:25",
                    "15:37",
                    "15:49",
                    "16:01",
                    "16:13",
                    "16:25",
                    "16:37",
                    "16:49",
                    "17:01",
                    "17:13",
                    "17:25",
                    "17:37",
                    "17:49",
                    "18:04",
                    "18:20",
                    "18:40",
                    "19:00",
                    "19:20",
                    "19:30",
                    "19:40",
                    "19:50",
                    "20:00",
                    "20:30",
                    "21:00"
                ],
                "cumartesi": [
                    "06:50",
                    "07:07",
                    "07:21",
                    "07:35",
                    "07:49",
                    "08:03",
                    "08:17",
                    "08:31",
                    "08:45",
                    "08:59",
                    "09:13",
                    "09:27",
                    "09:41",
                    "09:55",
                    "10:09",
                    "10:23",
                    "10:38",
                    "10:54",
                    "11:10",
                    "11:26",
                    "11:42",
                    "11:58",
                    "12:14",
                    "12:30",
                    "12:46",
                    "13:02",
                    "13:18",
                    "13:34",
                    "13:50",
                    "14:06",
                    "14:22",
                    "14:38",
                    "14:54",
                    "15:10",
                    "15:26",
                    "15:42",
                    "15:58",
                    "16:14",
                    "16:30",
                    "16:46",
                    "17:02",
                    "17:20",
                    "17:38",
                    "17:56",
                    "18:14",
                    "18:32",
                    "18:50",
                    "19:00",
                    "19:10",
                    "19:20",
                    "19:30",
                    "19:45",
                    "20:00",
                    "20:30",
                    "21:00"
                ],
                "pazar": [
                    "06:50",
                    "07:10",
                    "07:30",
                    "07:50",
                    "08:10",
                    "08:30",
                    "08:50",
                    "09:10",
                    "09:30",
                    "09:50",
                    "10:10",
                    "10:30",
                    "10:50",
                    "11:10",
                    "11:30",
                    "11:50",
                    "12:10",
                    "12:30",
                    "12:50",
                    "13:10",
                    "13:30",
                    "13:50",
                    "14:10",
                    "14:30",
                    "14:40",
                    "14:50",
                    "15:10",
                    "15:30",
                    "15:50",
                    "16:10",
                    "16:30",
                    "16:40",
                    "16:50",
                    "17:00",
                    "17:10",
                    "17:20",
                    "17:30",
                    "17:40",
                    "17:50",
                    "18:00",
                    "18:10",
                    "18:20",
                    "18:30",
                    "18:40",
                    "18:50",
                    "19:00",
                    "19:10",
                    "19:20",
                    "19:30",
                    "19:40",
                    "19:50",
                    "20:00",
                    "20:20",
                    "20:40",
                    "21:00"
                ]
            },
            "duraklar": [
                {
                    "stopId": "10081",
                    "stopName": "ÜNİVERSİTE 2",
                    "lat": "37.0434064",
                    "lng": "36.22525"
                },
                {
                    "stopId": "10310",
                    "stopName": "KARACAOĞLAN KYK",
                    "lat": "37.038479",
                    "lng": "36.227133"
                },
                {
                    "stopId": "10082",
                    "stopName": "TOKİLER",
                    "lat": "37.0407196",
                    "lng": "36.2341213"
                },
                {
                    "stopId": "10083",
                    "stopName": "YURTKUR DURAĞI",
                    "lat": "37.051979",
                    "lng": "36.233589"
                },
                {
                    "stopId": "10033",
                    "stopName": "TOSYALI DURAĞI",
                    "lat": "37.0528586",
                    "lng": "36.2307024"
                },
                {
                    "stopId": "10130",
                    "stopName": "YENI HAYAT",
                    "lat": "37.0624032",
                    "lng": "36.2382085"
                },
                {
                    "stopId": "10131",
                    "stopName": "DOMINOS DURAGI",
                    "lat": "37.0635363",
                    "lng": "36.2371783"
                },
                {
                    "stopId": "10132",
                    "stopName": "PARK 328 DURAGI",
                    "lat": "37.0653931",
                    "lng": "36.2356301"
                },
                {
                    "stopId": "10072",
                    "stopName": "VALİLİK 2 DURAĞI",
                    "lat": "37.0679995",
                    "lng": "36.2340916"
                },
                {
                    "stopId": "10133",
                    "stopName": "REMZI OZER DURAGI",
                    "lat": "37.0709659",
                    "lng": "36.2258899"
                },
                {
                    "stopId": "10134",
                    "stopName": "YILDIRIM BEYAZIT CEVREYOLU",
                    "lat": "37.0747995",
                    "lng": "36.2305766"
                },
                {
                    "stopId": "10135",
                    "stopName": "ZABITA MUDURLUGU",
                    "lat": "37.0769057",
                    "lng": "36.2339957"
                },
                {
                    "stopId": "10258",
                    "stopName": "TREN GARI 1",
                    "lat": "37.0789038",
                    "lng": "36.2371497"
                },
                {
                    "stopId": "10136",
                    "stopName": "SELALE PARK",
                    "lat": "37.0812069",
                    "lng": "36.2402647"
                },
                {
                    "stopId": "10137",
                    "stopName": "OTOGAR",
                    "lat": "37.100271",
                    "lng": "36.2437115"
                }
            ]
        },
        {
            "yonAdi": "OTOGAR - FAKIUŞAĞI",
            "saatler": {
                "haftaici": [
                    "06:35",
                    "06:50",
                    "07:00",
                    "07:10",
                    "07:20",
                    "07:30",
                    "07:40",
                    "07:50",
                    "08:00",
                    "08:09",
                    "08:18",
                    "08:27",
                    "08:35",
                    "08:43",
                    "08:52",
                    "09:00",
                    "09:10",
                    "09:20",
                    "09:30",
                    "09:40",
                    "09:51",
                    "10:03",
                    "10:15",
                    "10:27",
                    "10:39",
                    "10:51",
                    "11:03",
                    "11:15",
                    "11:27",
                    "11:39",
                    "11:51",
                    "12:05",
                    "12:19",
                    "12:33",
                    "12:48",
                    "13:02",
                    "13:15",
                    "13:27",
                    "13:39",
                    "13:51",
                    "14:03",
                    "14:15",
                    "14:27",
                    "14:39",
                    "14:51",
                    "15:03",
                    "15:15",
                    "15:27",
                    "15:39",
                    "15:51",
                    "16:03",
                    "16:15",
                    "16:27",
                    "16:39",
                    "16:51",
                    "17:03",
                    "17:15",
                    "17:27",
                    "17:39",
                    "17:51",
                    "18:03",
                    "18:15",
                    "18:27",
                    "18:39",
                    "18:54",
                    "19:10",
                    "19:30",
                    "19:50",
                    "20:10",
                    "20:20",
                    "20:30",
                    "20:40",
                    "20:50",
                    "21:25",
                    "22:00"
                ],
                "cumartesi": [
                    "06:40",
                    "06:55",
                    "07:10",
                    "07:25",
                    "07:40",
                    "07:47",
                    "08:01",
                    "08:15",
                    "08:29",
                    "08:43",
                    "08:57",
                    "09:11",
                    "09:25",
                    "09:39",
                    "09:53",
                    "10:07",
                    "10:21",
                    "10:35",
                    "10:49",
                    "11:03",
                    "11:18",
                    "11:34",
                    "11:50",
                    "12:06",
                    "12:22",
                    "12:38",
                    "12:54",
                    "13:10",
                    "13:26",
                    "13:42",
                    "13:58",
                    "14:14",
                    "14:30",
                    "14:46",
                    "15:02",
                    "15:18",
                    "15:34",
                    "15:50",
                    "16:06",
                    "16:22",
                    "16:38",
                    "16:54",
                    "17:10",
                    "17:26",
                    "17:42",
                    "18:00",
                    "18:18",
                    "18:36",
                    "18:54",
                    "19:12",
                    "19:30",
                    "19:40",
                    "19:50",
                    "20:00",
                    "20:10",
                    "20:25",
                    "20:40",
                    "21:00",
                    "21:30",
                    "22:00"
                ],
                "pazar": [
                    "06:40",
                    "06:55",
                    "07:10",
                    "07:25",
                    "07:40",
                    "07:47",
                    "08:01",
                    "08:15",
                    "08:29",
                    "08:43",
                    "08:57",
                    "09:11",
                    "09:25",
                    "09:39",
                    "09:53",
                    "10:07",
                    "10:21",
                    "10:35",
                    "10:49",
                    "11:03",
                    "11:18",
                    "11:34",
                    "11:50",
                    "12:06",
                    "12:22",
                    "12:38",
                    "12:54",
                    "13:10",
                    "13:26",
                    "13:42",
                    "13:58",
                    "14:14",
                    "14:30",
                    "14:46",
                    "15:02",
                    "15:18",
                    "15:34",
                    "15:50",
                    "16:06",
                    "16:22",
                    "16:38",
                    "16:54",
                    "17:10",
                    "17:26",
                    "17:42",
                    "18:00",
                    "18:18",
                    "18:36",
                    "18:54",
                    "19:12",
                    "19:30",
                    "19:40",
                    "19:50",
                    "20:00",
                    "20:10",
                    "20:25",
                    "20:40",
                    "21:00",
                    "21:30",
                    "22:00"
                ]
            },
            "duraklar": [
                {
                    "stopId": "10137",
                    "stopName": "OTOGAR",
                    "lat": "37.100271",
                    "lng": "36.2437115"
                },
                {
                    "stopId": "10138",
                    "stopName": "CEVREYOLU SOMUNCU BABA",
                    "lat": "37.0979522",
                    "lng": "36.2443364"
                },
                {
                    "stopId": "10139",
                    "stopName": "KUZEY CEVREYOLU",
                    "lat": "37.0942519",
                    "lng": "36.2397082"
                },
                {
                    "stopId": "10141",
                    "stopName": "DR IHSAN GOKNEL",
                    "lat": "37.083703",
                    "lng": "36.236448"
                },
                {
                    "stopId": "10142",
                    "stopName": "SELALE PARK 2",
                    "lat": "37.0813271",
                    "lng": "36.240384"
                },
                {
                    "stopId": "10143",
                    "stopName": "TREN GARI DURAGI",
                    "lat": "37.079103",
                    "lng": "36.237102"
                },
                {
                    "stopId": "10144",
                    "stopName": "ZABITA MUDURLUGU 2",
                    "lat": "37.0771196",
                    "lng": "36.2344808"
                },
                {
                    "stopId": "10063",
                    "stopName": "AYSANLAR DURAĞI",
                    "lat": "37.0687907",
                    "lng": "36.2353112"
                },
                {
                    "stopId": "10145",
                    "stopName": "PARK 328 2 DURAGI",
                    "lat": "37.0654735",
                    "lng": "36.2354564"
                },
                {
                    "stopId": "10146",
                    "stopName": "DOMINOS 2 DURAGI",
                    "lat": "37.0634983",
                    "lng": "36.2370814"
                },
                {
                    "stopId": "10017",
                    "stopName": "SİTELER 2 DURAĞI",
                    "lat": "37.061832",
                    "lng": "36.23813"
                },
                {
                    "stopId": "10189",
                    "stopName": "TOSYALI 2",
                    "lat": "37.0528633",
                    "lng": "36.2305625"
                },
                {
                    "stopId": "10086",
                    "stopName": "YURTKUR 2 DURAĞI",
                    "lat": "37.0518988",
                    "lng": "36.2335017"
                },
                {
                    "stopId": "10085",
                    "stopName": "TOKI 2 DURAĞI",
                    "lat": "37.0406892",
                    "lng": "36.2341048"
                },
                {
                    "stopId": "10310",
                    "stopName": "KARACAOĞLAN KYK",
                    "lat": "37.038479",
                    "lng": "36.227133"
                },
                {
                    "stopId": "10081",
                    "stopName": "ÜNİVERSİTE 2",
                    "lat": "37.0434064",
                    "lng": "36.22525"
                }
            ]
        }
    ],
    "A19": [
        {
            "yonAdi": "ÜNİVERSİTE 2.KAPI - OTOGAR",
            "saatler": {
                "haftaici": [
                    "06:50",
                    "07:10",
                    "08:00",
                    "08:30",
                    "09:00",
                    "09:30",
                    "10:00",
                    "10:30",
                    "11:00",
                    "11:30",
                    "12:00",
                    "12:30",
                    "13:00",
                    "13:30",
                    "14:00",
                    "14:30",
                    "15:00",
                    "15:30",
                    "16:00",
                    "16:30",
                    "17:00"
                ],
                "cumartesi": [
                    "06:50",
                    "07:10",
                    "08:00",
                    "08:30",
                    "09:00",
                    "09:30",
                    "10:00",
                    "10:30",
                    "11:00",
                    "11:30",
                    "12:00",
                    "12:30",
                    "13:00",
                    "13:30",
                    "14:00",
                    "14:30",
                    "15:00",
                    "15:30",
                    "16:00",
                    "16:30",
                    "17:00"
                ],
                "pazar": [
                    "06:50",
                    "07:10",
                    "08:00",
                    "08:30",
                    "09:00",
                    "09:30",
                    "10:00",
                    "10:30",
                    "11:00",
                    "11:30",
                    "12:00",
                    "12:30",
                    "13:00",
                    "13:30",
                    "14:00",
                    "14:30",
                    "15:00",
                    "15:30",
                    "16:00",
                    "16:30",
                    "17:00"
                ]
            },
            "duraklar": [
                {
                    "stopId": "10081",
                    "stopName": "ÜNİVERSİTE 2",
                    "lat": "37.0434064",
                    "lng": "36.22525"
                },
                {
                    "stopId": "10033",
                    "stopName": "TOSYALI DURAĞI",
                    "lat": "37.0528586",
                    "lng": "36.2307024"
                },
                {
                    "stopId": "10021",
                    "stopName": "CAN MARKET DURAĞI",
                    "lat": "37.0577674",
                    "lng": "36.2346396"
                },
                {
                    "stopId": "10039",
                    "stopName": "YENİ HAYAT HASTANE DURAĞI",
                    "lat": "37.0612444",
                    "lng": "36.2376661"
                },
                {
                    "stopId": "10131",
                    "stopName": "DOMINOS DURAGI",
                    "lat": "37.0635363",
                    "lng": "36.2371783"
                },
                {
                    "stopId": "10132",
                    "stopName": "PARK 328 DURAGI",
                    "lat": "37.0653931",
                    "lng": "36.2356301"
                },
                {
                    "stopId": "10072",
                    "stopName": "VALİLİK 2 DURAĞI",
                    "lat": "37.0679995",
                    "lng": "36.2340916"
                },
                {
                    "stopId": "10073",
                    "stopName": "AYSANLAR 2 DURAĞI",
                    "lat": "37.0691495",
                    "lng": "36.2363171"
                },
                {
                    "stopId": "10074",
                    "stopName": "BİLPA 2 DURAĞI",
                    "lat": "37.0707899",
                    "lng": "36.2393625"
                },
                {
                    "stopId": "10075",
                    "stopName": "ESKİ İTFAİYE 2 DURAĞI",
                    "lat": "37.0718157",
                    "lng": "36.2412461"
                },
                {
                    "stopId": "10076",
                    "stopName": "YURTİÇİ KARGO DURAĞI",
                    "lat": "37.0728422",
                    "lng": "36.2430909"
                },
                {
                    "stopId": "10058",
                    "stopName": "PARK DURAĞI",
                    "lat": "37.073966",
                    "lng": "36.2454707"
                },
                {
                    "stopId": "10077",
                    "stopName": "BAŞAK PETROL",
                    "lat": "37.0751592",
                    "lng": "36.2474414"
                },
                {
                    "stopId": "10078",
                    "stopName": "YENİ BELEDİYE 2",
                    "lat": "37.075736",
                    "lng": "36.2488504"
                },
                {
                    "stopId": "10008",
                    "stopName": "ÇİFT PETROL DURAĞI",
                    "lat": "37.0767335",
                    "lng": "36.2519783"
                },
                {
                    "stopId": "10047",
                    "stopName": "VİTAMİN ÇİFTLİĞİ",
                    "lat": "37.0769708",
                    "lng": "36.2525613"
                },
                {
                    "stopId": "10048",
                    "stopName": "KADİRLİ YOLU DURAĞI 2",
                    "lat": "37.0776187",
                    "lng": "36.2542789"
                },
                {
                    "stopId": "10049",
                    "stopName": "SHELL PETROL DURAĞI",
                    "lat": "37.0784618",
                    "lng": "36.2567187"
                },
                {
                    "stopId": "10259",
                    "stopName": "JANDARMA DURAĞI",
                    "lat": "37.0807012",
                    "lng": "36.2629686"
                },
                {
                    "stopId": "10266",
                    "stopName": "YENİ DEVLET HASTANESİ",
                    "lat": "37.0845871",
                    "lng": "36.273609"
                },
                {
                    "stopId": "10194",
                    "stopName": "MEVLANA SON DURAK",
                    "lat": "37.092574",
                    "lng": "36.268106"
                },
                {
                    "stopId": "10137",
                    "stopName": "OTOGAR",
                    "lat": "37.100271",
                    "lng": "36.2437115"
                }
            ]
        },
        {
            "yonAdi": "OTOGAR - ÜNİVERSİTE 2.KAPI",
            "saatler": {
                "haftaici": [],
                "cumartesi": [],
                "pazar": []
            },
            "duraklar": [
                {
                    "stopId": "10137",
                    "stopName": "OTOGAR",
                    "lat": "37.100271",
                    "lng": "36.2437115"
                },
                {
                    "stopId": "10182",
                    "stopName": "DUMLUPINAR GIRIS",
                    "lat": "37.0960539",
                    "lng": "36.2467337"
                },
                {
                    "stopId": "10183",
                    "stopName": "KABULLER DURAGI",
                    "lat": "37.0916006",
                    "lng": "36.2497238"
                },
                {
                    "stopId": "10184",
                    "stopName": "DIS HASTANESI",
                    "lat": "37.0884464",
                    "lng": "36.2505536"
                },
                {
                    "stopId": "10185",
                    "stopName": "IMAM AZAM CAMI",
                    "lat": "37.0845802",
                    "lng": "36.2516522"
                },
                {
                    "stopId": "10006",
                    "stopName": "KADİRLİ YOLU DURAĞI",
                    "lat": "37.077440",
                    "lng": "36.253271"
                },
                {
                    "stopId": "10007",
                    "stopName": "YENİ BELEDİYE DURAĞI",
                    "lat": "37.0763085",
                    "lng": "36.249857"
                },
                {
                    "stopId": "10084",
                    "stopName": "ÇARŞI DURAĞI",
                    "lat": "37.0753797",
                    "lng": "36.2476689"
                },
                {
                    "stopId": "10059",
                    "stopName": "ESKİ DİŞ HASTANESİ",
                    "lat": "37.0741872",
                    "lng": "36.2453386"
                },
                {
                    "stopId": "10060",
                    "stopName": "ORMAN İŞLETMESİ",
                    "lat": "37.0727147",
                    "lng": "36.2425333"
                },
                {
                    "stopId": "10061",
                    "stopName": "ESKİ İTFAİYE DURAĞI",
                    "lat": "37.0720451",
                    "lng": "36.2412584"
                },
                {
                    "stopId": "10062",
                    "stopName": "BİLPA DURAĞI",
                    "lat": "37.0703777",
                    "lng": "36.2382704"
                },
                {
                    "stopId": "10063",
                    "stopName": "AYSANLAR DURAĞI",
                    "lat": "37.0687907",
                    "lng": "36.2353112"
                },
                {
                    "stopId": "10145",
                    "stopName": "PARK 328 2 DURAGI",
                    "lat": "37.0654735",
                    "lng": "36.2354564"
                },
                {
                    "stopId": "10146",
                    "stopName": "DOMINOS 2 DURAGI",
                    "lat": "37.0634983",
                    "lng": "36.2370814"
                },
                {
                    "stopId": "10147",
                    "stopName": "YENI HAYAT 2",
                    "lat": "37.062335",
                    "lng": "36.2380724"
                },
                {
                    "stopId": "10017",
                    "stopName": "SİTELER 2 DURAĞI",
                    "lat": "37.061832",
                    "lng": "36.23813"
                },
                {
                    "stopId": "10081",
                    "stopName": "ÜNİVERSİTE 2",
                    "lat": "37.0434064",
                    "lng": "36.22525"
                }
            ]
        }
    ],
    "A2": [
        {
            "yonAdi": "YENİ MH-KARAÇAY 1",
            "saatler": {
                "haftaici": [],
                "cumartesi": [],
                "pazar": []
            },
            "duraklar": [
                {
                    "stopId": "10140",
                    "stopName": "KUZEY CEVREYOLU 1",
                    "lat": "37.0875621",
                    "lng": "36.2339395"
                },
                {
                    "stopId": "10088",
                    "stopName": "NECIP FAZIL KISAKUREK",
                    "lat": "37.0863893",
                    "lng": "36.2378764"
                },
                {
                    "stopId": "10089",
                    "stopName": "SALI PAZARI",
                    "lat": "37.0806424",
                    "lng": "36.2417533"
                },
                {
                    "stopId": "10090",
                    "stopName": "KOSK DUGUN SALONU DURAGI",
                    "lat": "37.0792059",
                    "lng": "36.2437036"
                },
                {
                    "stopId": "10091",
                    "stopName": "TURKUAZ DURAGI",
                    "lat": "37.078026",
                    "lng": "36.245149"
                },
                {
                    "stopId": "10150",
                    "stopName": "MUCAHIT SOYDEMIR ORTAOKULU",
                    "lat": "37.0763612",
                    "lng": "36.2475516"
                },
                {
                    "stopId": "10084",
                    "stopName": "ÇARŞI DURAĞI",
                    "lat": "37.0753797",
                    "lng": "36.2476689"
                },
                {
                    "stopId": "10092",
                    "stopName": "ZIRAAT BANKASI DURAGI",
                    "lat": "37.0741023",
                    "lng": "36.2471589"
                },
                {
                    "stopId": "10044",
                    "stopName": "ESKİ BELEDİYE DURAĞI",
                    "lat": "37.0728622",
                    "lng": "36.2489768"
                },
                {
                    "stopId": "10093",
                    "stopName": "ŞEHİTLİK DURAĞI",
                    "lat": "37.0727607",
                    "lng": "36.2510622"
                },
                {
                    "stopId": "10094",
                    "stopName": "YENI CARSI DURAGI",
                    "lat": "37.071444",
                    "lng": "36.251675"
                },
                {
                    "stopId": "10095",
                    "stopName": "YALCIN MARKET DURAGI",
                    "lat": "37.0667003",
                    "lng": "36.2552434"
                },
                {
                    "stopId": "10096",
                    "stopName": "HACI OSMANLI DURAGI",
                    "lat": "37.065297",
                    "lng": "36.2566471"
                },
                {
                    "stopId": "10097",
                    "stopName": "ZORKUN CAMI DURAGI",
                    "lat": "37.0615796",
                    "lng": "36.2606329"
                },
                {
                    "stopId": "10098",
                    "stopName": "PAZAR YOLU DURAGI",
                    "lat": "37.0606863",
                    "lng": "36.2615827"
                },
                {
                    "stopId": "10099",
                    "stopName": "SEMT DEGIRMENI",
                    "lat": "37.0593725",
                    "lng": "36.2630823"
                },
                {
                    "stopId": "10100",
                    "stopName": "DR. BESEN DURAGI",
                    "lat": "37.0581727",
                    "lng": "36.2646583"
                },